[
  {
    "specifier": "alqueva",
    "title": "Alqueva Reservoir",
    "country": "Portugal",
    "lon": -7.49,
    "lat": 38.2,
    "type": "reservoir"
  },
  {
    "specifier": "annecy",
    "title": "Lake Annecy",
    "country": "France",
    "lon": 6.17,
    "lat": 45.87,
    "type": "lake"
  },
  {
    "specifier": "annie",
    "title": "Lake Annie",
    "country": "USA",
    "lon": -81.35,
    "lat": 27.21,
    "type": "lake"
  },
  {
    "specifier": "argyle",
    "title": "Lake Argyle",
    "country": "Australia",
    "lon": 128.68,
    "lat": -16.31,
    "type": "reservoir"
  },
  {
    "specifier": "biel",
    "title": "Lake Biel",
    "country": "Switzerland",
    "lon": 7.16,
    "lat": 47.08,
    "type": "lake"
  },
  {
    "specifier": "big-muskellunge",
    "title": "Big Muskellunge Lake",
    "country": "USA",
    "lon": -89.61,
    "lat": 46.02,
    "type": "lake"
  },
  {
    "specifier": "black-oak",
    "title": "Black Oak Lake",
    "country": "USA",
    "lon": -89.32,
    "lat": 46.16,
    "type": "lake"
  },
  {
    "specifier": "bourget",
    "title": "Lake Bourget",
    "country": "France",
    "lon": 5.86,
    "lat": 45.76,
    "type": "lake"
  },
  {
    "specifier": "burley-griffin",
    "title": "Lake Burley Griffin",
    "country": "Australia",
    "lon": 149.07,
    "lat": -35.3,
    "type": "reservoir"
  },
  {
    "specifier": "crystal-lake",
    "title": "Crystal Lake",
    "country": "USA",
    "lon": -89.61,
    "lat": 46.0,
    "type": "lake"
  },
  {
    "specifier": "crystal-bog",
    "title": "Crystal Bog",
    "country": "USA",
    "lon": -89.61,
    "lat": 46.01,
    "type": "lake"
  },
  {
    "specifier": "delavan",
    "title": "Delavan Lake",
    "country": "USA",
    "lon": -88.6,
    "lat": 42.61,
    "type": "lake"
  },
  {
    "specifier": "dickie",
    "title": "Dickie Lake",
    "country": "Canada",
    "lon": -79.09,
    "lat": 45.15,
    "type": "lake"
  },
  {
    "specifier": "eagle ",
    "title": "Eagle Lake",
    "country": "Canada",
    "lon": -76.7,
    "lat": 44.68,
    "type": "lake"
  },
  {
    "specifier": "ekoln ",
    "title": "Ekoln basin of Mälaren",
    "country": "Sweden",
    "lon": 17.62,
    "lat": 59.75,
    "type": "lake"
  },
  {
    "specifier": "erken",
    "title": "Lake Erken",
    "country": "Sweden",
    "lon": 18.63,
    "lat": 59.84,
    "type": "lake"
  },
  {
    "specifier": "esthwaite-water",
    "title": "Esthwaite Water",
    "country": "United Kingdom",
    "lon": -2.99,
    "lat": 54.37,
    "type": "lake"
  },
  {
    "specifier": "falling-creek",
    "title": "Falling Creek Reservoir",
    "country": "USA",
    "lon": -79.84,
    "lat": 37.31,
    "type": "reservoir"
  },
  {
    "specifier": "feeagh",
    "title": "Lake Feeagh",
    "country": "Ireland",
    "lon": -9.5,
    "lat": 53.9,
    "type": "lake"
  },
  {
    "specifier": "fish",
    "title": "Fish Lake",
    "country": "USA",
    "lon": -89.65,
    "lat": 43.29,
    "type": "lake"
  },
  {
    "specifier": "geneva",
    "title": "Lake Geneva",
    "country": "France/Switzerland",
    "lon": 6.59,
    "lat": 46.45,
    "type": "lake"
  },
  {
    "specifier": "great",
    "title": "Great Pond",
    "country": "USA",
    "lon": -69.89,
    "lat": 44.53,
    "type": "lake"
  },
  {
    "specifier": "green",
    "title": "Green Lake",
    "country": "USA",
    "lon": -89.0,
    "lat": 43.81,
    "type": "lake"
  },
  {
    "specifier": "harp",
    "title": "Harp Lake",
    "country": "Canada",
    "lon": -79.13,
    "lat": 45.38,
    "type": "lake"
  },
  {
    "specifier": "kilpisjarvi",
    "title": "Kilpisjärvi",
    "country": "Finland",
    "lon": 20.77,
    "lat": 69.03,
    "type": "lake"
  },
  {
    "specifier": "kinneret",
    "title": "Lake Kinneret",
    "country": "Israel",
    "lon": 35.35,
    "lat": 32.49,
    "type": "lake"
  },
  {
    "specifier": "kivu",
    "title": "Lake Kivu",
    "country": "Rwanda/DR Congo",
    "lon": 29.24,
    "lat": -1.73,
    "type": "lake"
  },
  {
    "specifier": "klicava",
    "title": "Klicava Reservoir",
    "country": "Czechia",
    "lon": 13.93,
    "lat": 50.07,
    "type": "reservoir"
  },
  {
    "specifier": "kuivajarvi",
    "title": "Lake Kuivajarvi",
    "country": "Finland",
    "lon": 23.51,
    "lat": 60.47,
    "type": "lake"
  },
  {
    "specifier": "langtjern",
    "title": "Lake Langtjern",
    "country": "Norway",
    "lon": 9.73,
    "lat": 60.37,
    "type": "lake"
  },
  {
    "specifier": "laramie",
    "title": "Laramie Lake",
    "country": "USA",
    "lon": -105.84,
    "lat": 40.62,
    "type": "lake"
  },
  {
    "specifier": "lower-zurich",
    "title": "Lower Lake Zurich",
    "country": "Switzerland",
    "lon": 8.58,
    "lat": 47.28,
    "type": "lake"
  },
  {
    "specifier": "mendota",
    "title": "Lake Mendota",
    "country": "USA",
    "lon": -89.41,
    "lat": 43.1,
    "type": "lake"
  },
  {
    "specifier": "monona",
    "title": "Lake Monona",
    "country": "USA",
    "lon": -89.36,
    "lat": 43.06,
    "type": "lake"
  },
  {
    "specifier": "mozhaysk",
    "title": "Mozhaysk reservoir",
    "country": "Russia",
    "lon": 35.82,
    "lat": 55.59,
    "type": "reservoir"
  },
  {
    "specifier": "mt-bold",
    "title": "Mt Bold",
    "country": "Australia",
    "lon": 138.71,
    "lat": -35.12,
    "type": "reservoir"
  },
  {
    "specifier": "mueggelsee",
    "title": "Lake Müggelsee",
    "country": "Germany",
    "lon": 13.65,
    "lat": 52.43,
    "type": "lake"
  },
  {
    "specifier": "neuchatel",
    "title": "Lake Neuchâtel",
    "country": "Switzerland",
    "lon": 6.52,
    "lat": 46.54,
    "type": "lake"
  },
  {
    "specifier": "ngoring ",
    "title": "Ngoring ",
    "country": "China",
    "lon": 97.7,
    "lat": 34.9,
    "type": "lake"
  },
  {
    "specifier": "nohipalo-mustjaerv",
    "title": "Lake Nohipalo Mustjärv",
    "country": "Estonia",
    "lon": 27.34,
    "lat": 57.93,
    "type": "lake"
  },
  {
    "specifier": "nohipalo-valgejaerv",
    "title": "Lake Nohipalo Valgejärv",
    "country": "Estonia",
    "lon": 27.35,
    "lat": 57.94,
    "type": "lake"
  },
  {
    "specifier": "okauchee",
    "title": "Okauchee Lake",
    "country": "USA",
    "lon": -88.43,
    "lat": 43.13,
    "type": "lake"
  },
  {
    "specifier": "paajarvi",
    "title": "Lake Pääjärvi",
    "country": "Finland",
    "lon": 25.13,
    "lat": 61.07,
    "type": "lake"
  },
  {
    "specifier": "rappbode",
    "title": "Rappbode Reservoir",
    "country": "Germany",
    "lon": 10.89,
    "lat": 51.74,
    "type": "reservoir"
  },
  {
    "specifier": "rimov",
    "title": "Rimov Reservoir",
    "country": "Czechia",
    "lon": 14.49,
    "lat": 48.85,
    "type": "reservoir"
  },
  {
    "specifier": "rotorua",
    "title": "Lake Rotorua",
    "country": "New Zealand",
    "lon": 176.28,
    "lat": -38.08,
    "type": "lake"
  },
  {
    "specifier": "sammamish",
    "title": "Lake Sammamish",
    "country": "USA",
    "lon": -122.1,
    "lat": 47.59,
    "type": "lake"
  },
  {
    "specifier": "sau",
    "title": "Sau Reservoir",
    "country": "Spain",
    "lon": 2.4,
    "lat": 41.97,
    "type": "reservoir"
  },
  {
    "specifier": "sparkling",
    "title": "Sparkling Lake",
    "country": "USA",
    "lon": -89.7,
    "lat": 46.01,
    "type": "lake"
  },
  {
    "specifier": "stechlin",
    "title": "Lake Stechlin",
    "country": "Germany",
    "lon": 13.03,
    "lat": 53.17,
    "type": "lake"
  },
  {
    "specifier": "sunapee",
    "title": "Lake Sunapee",
    "country": "USA",
    "lon": -72.5,
    "lat": 43.23,
    "type": "lake"
  },
  {
    "specifier": "tahoe",
    "title": "Lake Tahoe",
    "country": "USA",
    "lon": -120.03,
    "lat": 39.09,
    "type": "reservoir"
  },
  {
    "specifier": "tarawera",
    "title": "Lake Tarawera",
    "country": "New Zealand",
    "lon": 176.43,
    "lat": -38.21,
    "type": "lake"
  },
  {
    "specifier": "taupo",
    "title": "Lake Taupo",
    "country": "New Zealand",
    "lon": 175.89,
    "lat": -38.8,
    "type": "lake"
  },
  {
    "specifier": "toolik",
    "title": "Toolik Lake",
    "country": "USA",
    "lon": -149.6,
    "lat": 68.63,
    "type": "lake"
  },
  {
    "specifier": "trout-lake",
    "title": "Trout Lake",
    "country": "USA",
    "lon": -89.67,
    "lat": 46.03,
    "type": "lake"
  },
  {
    "specifier": "trout-bog",
    "title": "Trout Bog",
    "country": "USA",
    "lon": -89.69,
    "lat": 46.04,
    "type": "lake"
  },
  {
    "specifier": "two-sisters",
    "title": "Two Sisters Lake",
    "country": "USA",
    "lon": -89.53,
    "lat": 45.77,
    "type": "lake"
  },
  {
    "specifier": "vendyurskoe",
    "title": "Lake Vendyurskoe",
    "country": "Russia",
    "lon": 33.1,
    "lat": 62.1,
    "type": "lake"
  },
  {
    "specifier": "vortsjaerv",
    "title": "lake Võrtsjärv",
    "country": "Estonia",
    "lon": 26.01,
    "lat": 58.31,
    "type": "lake"
  },
  {
    "specifier": "waahi",
    "title": "Lake Waahi",
    "country": "New Zealand",
    "lon": 175.07,
    "lat": 37.33,
    "type": "lake"
  },
  {
    "specifier": "washington",
    "title": "Lake Washington",
    "country": "USA",
    "lon": -122.27,
    "lat": 47.64,
    "type": "lake"
  },
  {
    "specifier": "windermere",
    "title": "Windermere",
    "country": "United Kingdom",
    "lon": -2.95,
    "lat": 54.31,
    "type": "lake"
  },
  {
    "specifier": "wingra",
    "title": "Lake Wingra",
    "country": "USA",
    "lon": -89.43,
    "lat": 43.05,
    "type": "lake"
  },
  {
    "specifier": "zlutice",
    "title": "Zlutice Reservoir",
    "country": "Czechia",
    "lon": 13.11,
    "lat": 50.09,
    "type": "reservoir"
  }
]