- specifier: sao-paulo-de-olivenca
  title: São Paulo de Olivenca
  area_upstream: 990781
  availability_daily: 1973-2010
  availability_monthly: 1979-1993
  grdc: 3623100
  lat: -3.45
  lon: -68.75
  river: Amazon
  river_specifier: amazon

- specifier: el-diem
  title: El-Deim, Sudan Border
  area_upstream: 160000
  availability_daily: 1900-1982
  availability_monthly: 1961-2002
  grdc: ''
  lat: 11
  lon: 35
  river: Blue Nile
  river_specifier: blue-nile

- specifier: khartoum
  title: Khartoum
  area_upstream: 325000
  availability_daily: 1900-1982
  availability_monthly: ''
  grdc: 1663100
  lat: 15.62
  lon: 32.55
  river: Blue Nile
  river_specifier: blue-nile

- specifier: wien-nussdorf
  title: Wien-Nußdorf
  area_upstream: 101700
  availability_daily: 1900-to date
  availability_monthly: 1828-1899
  grdc: 6242500
  lat: 48.25
  lon: 16.3
  river: Danube
  river_specifier: danube

- specifier: farakka
  title: Farakka
  area_upstream: 835000
  availability_daily: ''
  availability_monthly: 1949-1973
  grdc: 2846800
  lat: 25
  lon: 87.92
  river: Ganges
  river_specifier: ganges

- specifier: tekra
  title: Tekra
  area_upstream: 119781
  availability_daily: 1964-2017
  availability_monthly: 1964-2017
  grdc: ''
  lat: 19.068
  lon: 79.9
  river: Godavari
  river_specifier: godavari

- specifier: tarbela
  title: Tarbela Reservoir
  area_upstream: 173345
  availability_daily: 2000-2016
  availability_monthly: 2000-2016
  grdc: ''
  lat: 72.86
  lon: 34.33
  river: Indus
  river_specifier: indus

- specifier: krestovski
  title: Krestovski
  area_upstream: 440000
  availability_daily: 1936-1999
  availability_monthly: 1936-2002
  grdc: 2903427
  lat: 59.73
  lon: 113.17
  river: Lena
  river_specifier: lena

- specifier: stolb
  title: Stolb
  area_upstream: 2460000
  availability_daily: 1951-2002
  availability_monthly: 1978-1994
  grdc: 2903430
  lat: 72.37
  lon: 126.8
  river: Lena
  river_specifier: lena

- specifier: arctic-red-river
  title: Arctic Red River
  area_upstream: 1660000
  availability_daily: 1972-2015
  availability_monthly: 1972-1996
  grdc: 4208025
  lat: 67.4583
  lon: -133.745
  river: Mackenzie
  river_specifier: mackenzie

- specifier: alton
  title: Alton
  area_upstream: 444185
  availability_daily: 1933-1987
  availability_monthly: 1928-1984
  grdc: 4119800
  lat: 38.885
  lon: -90.1809
  river: Mississippi
  river_specifier: mississippi

- specifier: louth
  title: Louth
  area_upstream: 489300
  availability_daily: 1954-2008
  availability_monthly: 1954-2000
  grdc: 5204250
  lat: -30.5318
  lon: 145.1144
  river: Darling
  river_specifier: darling

- specifier: dire
  title: Dire
  area_upstream: 340000
  availability_daily: 1924-2003
  availability_monthly: 1924-2012
  grdc: 1134700
  lat: 16.2667
  lon: -3.3833
  river: Niger
  river_specifier: niger

- specifier: koulikoro
  title: Koulikoro
  area_upstream: 120000
  availability_daily: 1907-2006
  availability_monthly: 1907-2012
  grdc: 1134100
  lat: -30.5318
  lon: -7.55
  river: Niger
  river_specifier: niger

- specifier: lokoja
  title: Lokoja
  area_upstream: 2074171
  availability_daily: 1970-2006
  availability_monthly: 2007-2012
  grdc: 1834101
  lat: 7.8
  lon: 6.7667
  river: Niger
  river_specifier: niger

- specifier: tossaye
  title: Tossaye
  area_upstream: 348000
  availability_daily: 1954-1992
  availability_monthly: 1954-1992
  grdc: 1134850
  lat: 16.9416
  lon: -0.579166
  river: Niger
  river_specifier: niger

- specifier: floresta
  title: Floresta
  area_upstream: 12266
  availability_daily: ''
  availability_monthly: ''
  grdc: ''
  lat: -8.6089
  lon: -38.5767
  river: Pajeu
  river_specifier: pajeu

- specifier: lobith
  title: Lobith
  area_upstream: 160800
  availability_daily: 1901-2010
  availability_monthly: 1901-1996
  grdc: 6435060
  lat: 51.84
  lon: 6.11
  river: Rhine
  river_specifier: rhine

- specifier: almourol
  title: Almourol
  area_upstream: 61490
  availability_daily: 1982-1990
  availability_monthly: 1973-1990
  grdc: 6113050
  lat: 39.47
  lon: -8.37
  river: Tagus
  river_specifier: tagus

- specifier: trillo
  title: Trillo
  area_upstream: 3253
  availability_daily: 1977-1984
  availability_monthly: 1977-1984
  grdc: 6213800
  lat: 40.7
  lon: -2.58
  river: Tagus
  river_specifier: tagus

- specifier: cuntan
  title: Cuntan
  area_upstream: 804859
  availability_daily: 1987-2006
  availability_monthly: 1987-2006
  grdc: ''
  lat: 29.616667
  lon: 106.6
  river: Yangtze
  river_specifier: yangtze

- specifier: tangnaihai
  title: Tangnaihai
  area_upstream: 121000
  availability_daily: 1971-2002
  availability_monthly: 1971-2002
  grdc: ''
  lat: 35.5
  lon: 100.15
  river: Yellow, Huang He
  river_specifier: yellow

- specifier: oeyungen
  title: Oeyungen
  lat: 64.24378204
  lon: 11.08168697
  river: Aargaardsvassdraget
  river_specifier: aargaardsvassdraget

- specifier: oeyendf
  title: Oeyendf
  lat: 62.06818008
  lon: 6.931252003
  river: Bygdaelva
  river_specifier: bygdaelva

- specifier: ulleboeelv
  title: Ulleboeelv
  lat: 61.20324326
  lon: 5.785525799
  river: Dyrneslielva
  river_specifier: dyrneslielva

- specifier: stordalsvatn
  title: Stordalsvatn
  lat: 59.68293762
  lon: 6.010889053
  river: Etnevassdraget
  river_specifier: etnevassdraget

- specifier: oksfjordvatn
  title: Oksfjordvatn
  lat: 69.90021515
  lon: 21.37681007
  river: Fiskelva
  river_specifier: fiskelva

- specifier: brekkebru
  title: Brekkebru
  lat: 60.84999466
  lon: 7.114254951
  river: Flaamselvi
  river_specifier: flaamselvi

- specifier: fustvatn
  title: Fustvatn
  lat: 65.90523529
  lon: 13.30759335
  river: Fusta
  river_specifier: fusta

- specifier: eggafoss
  title: Eggafoss
  lat: 62.8901062
  lon: 11.18387985
  river: Gaula
  river_specifier: gaula

- specifier: atnasjoe
  title: Atnasjoe
  lat: 61.85194016
  lon: 10.22211933
  river: Glommavassdraget
  river_specifier: glommavassdraget

- specifier: knappom
  title: Knappom
  lat: 60.6411705
  lon: 12.04712486
  river: Glommavassdraget
  river_specifier: glommavassdraget

- specifier: rosten
  title: Rosten
  lat: 61.85856628
  lon: 9.404753685
  river: Glommavassdraget
  river_specifier: glommavassdraget

- specifier: nautsundvatn
  title: Nautsundvatn
  lat: 61.25289536
  lon: 5.385350227
  river: Guddalsvassdraget
  river_specifier: guddalsvassdraget

- specifier: hersvikvatn
  title: Hersvikvatn
  lat: 61.1352005
  lon: 4.937115192
  river: Hageelva
  river_specifier: hageelva

- specifier: lenglingen
  title: Lenglingen
  lat: 64.24487305
  lon: 13.76030636
  river: Holdelva
  river_specifier: holdelva

- specifier: karpelva
  title: Karpelva
  lat: 69.65991211
  lon: 30.38412094
  river: Karpelva
  river_specifier: karpelva

- specifier: hoelen
  title: Hoelen
  lat: 60.35738373
  lon: 6.746254921
  river: Kinso
  river_specifier: kinso

- specifier: laksaabru
  title: Laksaabru
  lat: 67.79663086
  lon: 15.29607773
  river: Laksaa
  river_specifier: laksaa

- specifier: skarsvatn
  title: Skarsvatn
  lat: 67.08398438
  lon: 14.98147392
  river: Lakselva
  river_specifier: lakselva

- specifier: ytrefiskeloesvatn
  title: Ytrefiskeloesvatn
  lat: 69.2629776
  lon: 18.88206673
  river: Lakselva
  river_specifier: lakselva

- specifier: langvatn
  title: Langvatn
  lat: 68.61923981
  lon: 15.71248531
  river: Langvasselva
  river_specifier: langvasselva

- specifier: storvatn
  title: Storvatn
  lat: 66.09342194
  lon: 13.11637783
  river: Leirelva
  river_specifier: leirelva

- specifier: landbru
  title: Landbru
  lat: 64.88673401
  lon: 13.91636276
  river: Linvasselva
  river_specifier: linvasselva

- specifier: tingvatn
  title: Tingvatn
  lat: 58.40113831
  lon: 7.223348141
  river: Lygna
  river_specifier: lygna

- specifier: lillerostavatn
  title: Lillerostavatn
  lat: 69.02297974
  lon: 19.58108139
  river: Maalselvvassdraget
  river_specifier: maalselvvassdraget

- specifier: myglevatn
  title: Myglevatn
  lat: 58.44588852
  lon: 7.584990978
  river: Mandalselva
  river_specifier: mandalselva

- specifier: murusjoe
  title: Murusjoe
  lat: 64.48670197
  lon: 14.0156498
  river: Muruelva
  river_specifier: muruelva

- specifier: krinsvatn
  title: Krinsvatn
  lat: 63.80408859
  lon: 10.2319088
  river: Nordelva
  river_specifier: nordelva

- specifier: reinsnosvatn
  title: Reinsnosvatn
  lat: 59.96939468
  lon: 6.725261211
  river: Opo
  river_specifier: opo

- specifier: roeykenes
  title: Roeykenes
  lat: 60.24881363
  lon: 5.441903114
  river: Oselva
  river_specifier: oselva

- specifier: osenelv
  title: Osenelv
  lat: 62.79320145
  lon: 7.726065159
  river: Osenvassdraget
  river_specifier: osenvassdraget

- specifier: etna
  title: Etna
  lat: 60.95190048
  lon: 9.626173973
  river: Randselva
  river_specifier: randselva

- specifier: gaaslandsvatn
  title: Gaaslandsvatn
  lat: 68.67282867
  lon: 14.62927341
  river: Ringstadelva
  river_specifier: ringstadelva

- specifier: oevrevatn
  title: Oevrevatn
  lat: 68.85762024
  lon: 17.94107437
  river: Salangselva
  river_specifier: salangselva

- specifier: salsvatn
  title: Salsvatn
  lat: 64.70537567
  lon: 11.45436192
  river: Salsvatnvassdraget
  river_specifier: salsvatnvassdraget

- specifier: jordbrufjell
  title: Jordbrufjell
  lat: 66.93560028
  lon: 15.14655399
  river: Saltdalsvassdraget
  river_specifier: saltdalsvassdraget

- specifier: junkerdalselv
  title: Junkerdalselv
  lat: 66.81479645
  lon: 15.4106884
  river: Saltdalsvassdraget
  river_specifier: saltdalsvassdraget

- specifier: skogsfjordvatn
  title: Skogsfjordvatn
  lat: 69.98092651
  lon: 19.10412407
  river: Skogsfjordelva
  river_specifier: skogsfjordelva

- specifier: sneisvatn
  title: Sneisvatn
  lat: 68.40743256
  lon: 15.70544243
  river: Sneiselva
  river_specifier: sneiselva

- specifier: lombola
  title: Lombola
  lat: 70.13985443
  lon: 24.76062775
  river: Stabburselva
  river_specifier: stabburselva

- specifier: hoeggaasbru
  title: Hoeggaasbru
  lat: 63.49292374
  lon: 11.35831165
  river: Stjoerdalsvassdraget
  river_specifier: stjoerdalsvassdraget

- specifier: dalsboevatn
  title: Dalsboevatn
  lat: 62.16242981
  lon: 5.166490078
  river: Storelva
  river_specifier: storelva

- specifier: polmak
  title: Polmak
  lat: 70.07034302
  lon: 28.01600838
  river: Tana
  river_specifier: tana

- specifier: tannsvatn
  title: Tannsvatn
  lat: 59.673172
  lon: 8.067387581
  river: Tansaai
  river_specifier: tansaai

- specifier: engsetvatn
  title: Engsetvatn
  lat: 62.53139496
  lon: 6.617669106
  river: Tennfjordelva
  river_specifier: tennfjordelva

- specifier: austenaa
  title: Austenaa
  lat: 58.83963394
  lon: 8.100524902
  river: Tovdalsvassdraget
  river_specifier: tovdalsvassdraget

- specifier: engeren
  title: Engeren
  lat: 61.66487885
  lon: 12.01834774
  river: Trysilelva
  river_specifier: trysilelva

- specifier: femundsenden
  title: Femundsenden
  lat: 61.91996002
  lon: 11.94004345
  river: Trysilelva
  river_specifier: trysilelva

- specifier: fetvatn
  title: Fetvatn
  lat: 62.33250046
  lon: 6.592887878
  river: Velledalselva
  river_specifier: velledalselva

- specifier: grunnfoss
  title: Grunnfoss
  lat: 63.79117966
  lon: 11.80969334
  river: Verdalsvassdraget
  river_specifier: verdalsvassdraget

- specifier: bulken
  title: Bulken
  lat: 60.62868118
  lon: 6.292537212
  river: Vossovassdraget
  river_specifier: vossovassdraget
